[{"model": "schools.school", "pk": 24, "fields": {"code": 7451111, "edu_office_code": "G10", "name": "대전자운초등학교", "type": 1, "location": "대전광역시", "address": "대전광역시 유성구 자운로97번길 380"}}, {"model": "schools.school", "pk": 25, "fields": {"code": 7831028, "edu_office_code": "K10", "name": "성덕초등학교", "type": 1, "location": "강원도", "address": "강원도 강릉시 용지로 60"}}, {"model": "schools.school", "pk": 26, "fields": {"code": 7841023, "edu_office_code": "K10", "name": "청운초등학교", "type": 1, "location": "강원도", "address": "강원도 동해시 청운로 60"}}, {"model": "schools.school", "pk": 27, "fields": {"code": 7862015, "edu_office_code": "K10", "name": "교동초등학교", "type": 1, "location": "강원도", "address": "강원도 속초시 만천1길 67"}}, {"model": "schools.school", "pk": 28, "fields": {"code": 7862006, "edu_office_code": "K10", "name": "설악중학교", "type": 2, "location": "강원도", "address": "강원도 속초시 미시령로 3402"}}, {"model": "schools.school", "pk": 29, "fields": {"code": 7031215, "edu_office_code": "B10", "name": "중암중학교", "type": 2, "location": "서울특별시", "address": "서울특별시 마포구 월드컵북로38길 25"}}, {"model": "schools.school", "pk": 30, "fields": {"code": 8222012, "edu_office_code": "N10", "name": "용남중학교", "type": 2, "location": "충청남도", "address": "충청남도 계룡시 신도안면 신도안2길 66"}}, {"model": "schools.school", "pk": 31, "fields": {"code": 9300054, "edu_office_code": "I10", "name": "세종고등학교", "type": 3, "location": "세종특별자치시", "address": "세종특별자치시  조치원읍 조치원중고길 10"}}, {"model": "schools.school", "pk": 32, "fields": {"code": 8750210, "edu_office_code": "R10", "name": "포항제철고등학교", "type": 3, "location": "경상북도", "address": "경상북도 포항시 남구 지곡로212번길 40"}}, {"model": "schools.school", "pk": 33, "fields": {"code": 7380030, "edu_office_code": "F10", "name": "광주고등학교", "type": 3, "location": "광주광역시", "address": "광주광역시 동구 중앙로 302"}}, {"model": "schools.school", "pk": 34, "fields": {"code": 9290049, "edu_office_code": "T10", "name": "제주제일고등학교", "type": 3, "location": "제주특별자치도", "address": "제주특별자치도 제주시 진군길 22"}}, {"model": "schools.school", "pk": 35, "fields": {"code": 7569072, "edu_office_code": "J10", "name": "평촌중학교", "type": 2, "location": "경기도", "address": "경기도 안양시 동안구 관평로 127"}}, {"model": "schools.school", "pk": 36, "fields": {"code": 7091368, "edu_office_code": "B10", "name": "계성초등학교", "type": 1, "location": "서울특별시", "address": "서울특별시 서초구 신반포로19길 23"}}, {"model": "schools.school", "pk": 37, "fields": {"code": 7010125, "edu_office_code": "B10", "name": "경신고등학교", "type": 3, "location": "서울특별시", "address": "서울특별시 종로구 혜화로 74"}}, {"model": "schools.school", "pk": 38, "fields": {"code": 7061094, "edu_office_code": "B10", "name": "경신중학교", "type": 2, "location": "서울특별시", "address": "서울특별시 종로구 혜화로 74"}}, {"model": "schools.school", "pk": 39, "fields": {"code": 7010170, "edu_office_code": "B10", "name": "배재고등학교", "type": 3, "location": "서울특별시", "address": "서울특별시 강동구 고덕로 227"}}, {"model": "schools.school", "pk": 40, "fields": {"code": 7130181, "edu_office_code": "B10", "name": "배재중학교", "type": 2, "location": "서울특별시", "address": "서울특별시 강동구 고덕로 227"}}, {"model": "schools.school", "pk": 41, "fields": {"code": 7010227, "edu_office_code": "B10", "name": "이화여자고등학교", "type": 3, "location": "서울특별시", "address": "서울특별시 중구 정동길"}}, {"model": "schools.school", "pk": 42, "fields": {"code": 7130203, "edu_office_code": "B10", "name": "정신여자중학교", "type": 2, "location": "서울특별시", "address": "서울특별시 송파구 올림픽로4길 16"}}, {"model": "schools.school", "pk": 43, "fields": {"code": 7361037, "edu_office_code": "E10", "name": "인천부평초등학교", "type": 1, "location": "인천광역시", "address": "인천광역시 계양구 어사대로 20"}}, {"model": "schools.school", "pk": 44, "fields": {"code": 7321066, "edu_office_code": "E10", "name": "영화초등학교", "type": 1, "location": "인천광역시", "address": "인천광역시 동구 우각로 39"}}, {"model": "schools.school", "pk": 45, "fields": {"code": 7010132, "edu_office_code": "B10", "name": "광성고등학교", "type": 3, "location": "서울특별시", "address": "서울특별시 마포구 신수로8길 20"}}, {"model": "schools.school", "pk": 46, "fields": {"code": 7031180, "edu_office_code": "B10", "name": "광성중학교", "type": 2, "location": "서울특별시", "address": "서울 마포구 신수로8길 20"}}, {"model": "schools.school", "pk": 47, "fields": {"code": 7061058, "edu_office_code": "B10", "name": "서울교동초등학교", "type": 1, "location": "서울특별시", "address": "서울특별시 종로구 삼일대로 446"}}, {"model": "schools.school", "pk": 48, "fields": {"code": 7181084, "edu_office_code": "C10", "name": "부산개성중학교", "type": 2, "location": "부산광역시", "address": "부산광역시 부산진구 엄광로 176-12"}}, {"model": "schools.school", "pk": 49, "fields": {"code": 7150396, "edu_office_code": "C10", "name": "개성고등학교", "type": 3, "location": "부산광역시", "address": "부산광역시 부산진구 당감서로 137"}}, {"model": "schools.school", "pk": 50, "fields": {"code": 7310057, "edu_office_code": "E10", "name": "인천고등학교", "type": 3, "location": "인천광역시", "address": "인천광역시 미추홀구 경원대로 804"}}, {"model": "schools.school", "pk": 51, "fields": {"code": 7061067, "edu_office_code": "B10", "name": "서울봉래초등학교", "type": 1, "location": "서울특별시", "address": "서울특별시 중구 손기정로 73"}}, {"model": "schools.school", "pk": 52, "fields": {"code": 9051124, "edu_office_code": "S10", "name": "진주초등학교", "type": 1, "location": "경상남도", "address": "경상남도 진주시 진주성로24번길 7"}}, {"model": "schools.school", "pk": 53, "fields": {"code": 7061079, "edu_office_code": "B10", "name": "서울재동초등학교", "type": 1, "location": "서울특별시", "address": "서울특별시 종로구 북촌로4길 7"}}, {"model": "schools.school", "pk": 54, "fields": {"code": 7191038, "edu_office_code": "C10", "name": "동래여자중학교", "type": 2, "location": "부산광역시", "address": "부산광역시 금정구 체육공원로 20"}}, {"model": "schools.school", "pk": 55, "fields": {"code": 7061064, "edu_office_code": "B10", "name": "서울매동초등학교", "type": 1, "location": "서울특별시", "address": "서울특별시 종로구 사직로9길 19"}}, {"model": "schools.school", "pk": 56, "fields": {"code": 7061088, "edu_office_code": "B10", "name": "서울효제초등학교", "type": 1, "location": "서울특별시", "address": "서울특별시 종로구 대학로 12"}}, {"model": "schools.school", "pk": 57, "fields": {"code": 7541096, "edu_office_code": "J10", "name": "신풍초등학교", "type": 1, "location": "경기도", "address": "경기도 수원시 영통구 도청로17번길 24"}}, {"model": "schools.school", "pk": 58, "fields": {"code": 7351007, "edu_office_code": "E10", "name": "강화초등학교", "type": 1, "location": "인천광역시", "address": "인천광역시 강화군 강화읍 북문길 36"}}, {"model": "schools.school", "pk": 59, "fields": {"code": 7031125, "edu_office_code": "B10", "name": "서울미동초등학교", "type": 1, "location": "서울특별시", "address": "서울특별시 서대문구 충정로 52"}}, {"model": "schools.school", "pk": 60, "fields": {"code": 7831015, "edu_office_code": "K10", "name": "강릉초등학교", "type": 1, "location": "강원도", "address": "강원도 강릉시 토성로 103"}}, {"model": "schools.school", "pk": 61, "fields": {"code": 7821049, "edu_office_code": "K10", "name": "원주초등학교", "type": 1, "location": "강원도", "address": "강원도 원주시 봉산로 15"}}, {"model": "schools.school", "pk": 62, "fields": {"code": 8011200, "edu_office_code": "M10", "name": "주성초등학교", "type": 1, "location": "충청북도", "address": "충청북도 청주시 상당구 교서로 45"}}, {"model": "schools.school", "pk": 63, "fields": {"code": 7561038, "edu_office_code": "J10", "name": "의정부중앙초등학교", "type": 1, "location": "경기도", "address": "경기도 의정부시 호국로1291번길 17"}}, {"model": "schools.school", "pk": 64, "fields": {"code": 8681015, "edu_office_code": "Q10", "name": "영광초등학교", "type": 1, "location": "전라남도", "address": "전라남도 영광군 영광읍 중앙로 216-7"}}, {"model": "schools.school", "pk": 65, "fields": {"code": 7391067, "edu_office_code": "F10", "name": "광주서석초등학교", "type": 1, "location": "광주광역시", "address": "광주광역시 동구 제봉로82번길 26"}}, {"model": "schools.school", "pk": 66, "fields": {"code": 8151067, "edu_office_code": "N10", "name": "직산초등학교", "type": 1, "location": "충청남도", "address": "충청남도 천안시 서북구 직산읍 직산안길 79"}}, {"model": "schools.school", "pk": 67, "fields": {"code": 8331045, "edu_office_code": "P10", "name": "전주초등학교", "type": 1, "location": "전라북도", "address": "전라북도 전주시 완산구 대동로 33"}}, {"model": "schools.school", "pk": 68, "fields": {"code": 7010203, "edu_office_code": "B10", "name": "숭실고등학교", "type": 3, "location": "서울특별시", "address": "서울특별시 은평구 은평터널로7길 6"}}, {"model": "schools.school", "pk": 69, "fields": {"code": 7031198, "edu_office_code": "B10", "name": "숭실중학교", "type": 2, "location": "서울특별시", "address": "서울특별시 은평구 은평터널로7길 6"}}, {"model": "schools.school", "pk": 70, "fields": {"code": 9101008, "edu_office_code": "S10", "name": "밀양초등학교", "type": 1, "location": "경상남도", "address": "경상남도 밀양시 중앙로 282-12"}}, {"model": "schools.school", "pk": 71, "fields": {"code": 9091015, "edu_office_code": "S10", "name": "김해동광초등학교", "type": 1, "location": "경상남도", "address": "경상남도 김해시 호계로500번길 15-15"}}, {"model": "schools.school", "pk": 72, "fields": {"code": 7150097, "edu_office_code": "C10", "name": "동래고등학교", "type": 3, "location": "부산광역시", "address": "부산광역시 동래구 충렬대로285번길 22"}}, {"model": "schools.school", "pk": 73, "fields": {"code": 7679016, "edu_office_code": "J10", "name": "남양초등학교", "type": 1, "location": "경기도", "address": "경기도 화성시 남양읍 남양시장로55번길 7"}}, {"model": "schools.school", "pk": 74, "fields": {"code": 7010171, "edu_office_code": "B10", "name": "배화여자고등학교", "type": 3, "location": "서울특별시", "address": "서울특별시 종로구 필운대로1길 34"}}, {"model": "schools.school", "pk": 75, "fields": {"code": 7061102, "edu_office_code": "B10", "name": "배화여자중학교", "type": 2, "location": "서울특별시", "address": "서울특별시 종로구 필운대로1길 34"}}, {"model": "schools.school", "pk": 76, "fields": {"code": 7271108, "edu_office_code": "D10", "name": "효성초등학교", "type": 1, "location": "대구광역시", "address": "대구광역시 달서구 송현로 81"}}, {"model": "schools.school", "pk": 77, "fields": {"code": 7010278, "edu_office_code": "B10", "name": "서울공업고등학교", "type": 3, "location": "서울특별시", "address": "서울특별시 동작구 대방동1길 46"}}, {"model": "schools.school", "pk": 78, "fields": {"code": 7010536, "edu_office_code": "B10", "name": "선린인터넷고등학교", "type": 3, "location": "서울특별시", "address": "서울특별시 용산구 원효로97길 33-4"}}, {"model": "schools.school", "pk": 79, "fields": {"code": 7061105, "edu_office_code": "B10", "name": "선린중학교", "type": 2, "location": "서울특별시", "address": "서울특별시 용산구 원효로97길 33-4"}}, {"model": "schools.school", "pk": 80, "fields": {"code": 7611066, "edu_office_code": "J10", "name": "안산초등학교", "type": 1, "location": "경기도", "address": "경기도 안산시 상록구 수암2길 13-7"}}, {"model": "schools.school", "pk": 81, "fields": {"code": 7441046, "edu_office_code": "G10", "name": "호수돈여자중학교", "type": 2, "location": "대전광역시", "address": "대전광역시 중구 선화로 50"}}, {"model": "schools.school", "pk": 82, "fields": {"code": 7821041, "edu_office_code": "K10", "name": "북원초등학교", "type": 1, "location": "강원도", "address": "강원도 원주시 단구로 60"}}, {"model": "schools.school", "pk": 130, "fields": {"code": 7081463, "edu_office_code": "B10", "name": "서울양천초등학교", "type": 1, "location": "서울특별시", "address": "서울특별시 강서구 양천로 329"}}, {"model": "schools.school", "pk": 131, "fields": {"code": 7631052, "edu_office_code": "J10", "name": "진위초등학교", "type": 1, "location": "경기도", "address": "경기도 평택시 진위면 봉남길 49"}}, {"model": "schools.school", "pk": 132, "fields": {"code": 7631069, "edu_office_code": "J10", "name": "진위초등학교산대분교장", "type": 1, "location": "경기도", "address": "경기도 평택시 진위면 은산3길 46"}}, {"model": "schools.school", "pk": 133, "fields": {"code": 8320095, "edu_office_code": "P10", "name": "전주기전여자고등학교", "type": 3, "location": "전라북도", "address": "전라북도 전주시 완산구 유연로 133"}}, {"model": "schools.school", "pk": 134, "fields": {"code": 8331117, "edu_office_code": "P10", "name": "전주기전중학교", "type": 2, "location": "전라북도", "address": "전라북도 전주시 완산구 유연로 133"}}, {"model": "schools.school", "pk": 135, "fields": {"code": 7341065, "edu_office_code": "E10", "name": "인천박문초등학교", "type": 1, "location": "인천광역시", "address": "인천광역시 연수구 봉재산로 138-22"}}, {"model": "schools.school", "pk": 136, "fields": {"code": 8320109, "edu_office_code": "P10", "name": "전주신흥고등학교", "type": 3, "location": "전라북도", "address": "전라북도 전주시 완산구 서원로 399"}}, {"model": "schools.school", "pk": 137, "fields": {"code": 8331037, "edu_office_code": "P10", "name": "전주신흥중학교", "type": 2, "location": "전라북도", "address": "전라북도 전주시 완산구 서원로 399"}}, {"model": "schools.school", "pk": 138, "fields": {"code": 7010059, "edu_office_code": "B10", "name": "경기고등학교", "type": 3, "location": "서울특별시", "address": "서울특별시 강남구 영동대로 643"}}, {"model": "schools.school", "pk": 139, "fields": {"code": 7061057, "edu_office_code": "B10", "name": "서울광희초등학교", "type": 1, "location": "서울특별시", "address": "서울특별시 중구 다산로 269"}}, {"model": "schools.school", "pk": 140, "fields": {"code": 7251055, "edu_office_code": "D10", "name": "대구종로초등학교", "type": 1, "location": "대구광역시", "address": "대구광역시 중구 경상감영길 49"}}, {"model": "schools.school", "pk": 141, "fields": {"code": 7430067, "edu_office_code": "G10", "name": "호수돈여자고등학교", "type": 3, "location": "대전광역시", "address": "대전광역시 중구 선화로 50"}}, {"model": "schools.school", "pk": 142, "fields": {"code": 7351026, "edu_office_code": "E10", "name": "합일초등학교", "type": 1, "location": "인천광역시", "address": "인천광역시 강화군 강화읍 합일길 3"}}, {"model": "schools.school", "pk": 143, "fields": {"code": 9022059, "edu_office_code": "S10", "name": "성호초등학교", "type": 1, "location": "경상남도", "address": "경상남도 창원시 마산합포구 성호동4길 21"}}, {"model": "schools.school", "pk": 144, "fields": {"code": 7530335, "edu_office_code": "J10", "name": "삼일공업고등학교", "type": 3, "location": "경기도", "address": "경기도 수원시 팔달구 수원천로392번길 44-60"}}, {"model": "schools.school", "pk": 145, "fields": {"code": 7530497, "edu_office_code": "J10", "name": "매향여자정보고등학교", "type": 3, "location": "경기도", "address": "경기도 수원시 팔달구 수원천로 350"}}, {"model": "schools.school", "pk": 146, "fields": {"code": 7541059, "edu_office_code": "J10", "name": "매향중학교", "type": 2, "location": "경기도", "address": "경기도 수원시 팔달구 수원천로392번길 44-22"}}, {"model": "schools.school", "pk": 147, "fields": {"code": 7761038, "edu_office_code": "J10", "name": "안성초등학교", "type": 1, "location": "경기도", "address": "경기도 안성시 혜산로 13"}}, {"model": "schools.school", "pk": 148, "fields": {"code": 7240218, "edu_office_code": "D10", "name": "신명고등학교", "type": 3, "location": "대구광역시", "address": "대구광역시 중구 국채보상로102길 48"}}, {"model": "schools.school", "pk": 149, "fields": {"code": 8320093, "edu_office_code": "P10", "name": "군산제일고등학교", "type": 3, "location": "전라북도", "address": "전라북도 군산시 경기장로 142"}}, {"model": "schools.school", "pk": 150, "fields": {"code": 7631029, "edu_office_code": "J10", "name": "내기초등학교", "type": 1, "location": "경기도", "address": "경기도 평택시 포승읍 내기새싹길 23"}}, {"model": "schools.school", "pk": 151, "fields": {"code": 7931023, "edu_office_code": "K10", "name": "철원초등학교", "type": 1, "location": "강원도", "address": "강원도 철원군 철원읍 금학로 297-18"}}, {"model": "schools.school", "pk": 152, "fields": {"code": 7530336, "edu_office_code": "J10", "name": "삼일상업고등학교", "type": 3, "location": "경기도", "address": "경기도 수원시 팔달구 수원천로392번길 44-28"}}, {"model": "schools.school", "pk": 153, "fields": {"code": 7541025, "edu_office_code": "J10", "name": "삼일중학교", "type": 2, "location": "경기도", "address": "경기도 수원시 팔달구 수원천로 342"}}, {"model": "schools.school", "pk": 154, "fields": {"code": 8490085, "edu_office_code": "Q10", "name": "목포정명여자고등학교", "type": 3, "location": "전라남도", "address": "전라남도 목포시 삼일로 45"}}, {"model": "schools.school", "pk": 155, "fields": {"code": 8501016, "edu_office_code": "Q10", "name": "목포정명여자중학교", "type": 2, "location": "전라남도", "address": "전라남도 목포시 삼일로 45"}}, {"model": "schools.school", "pk": 156, "fields": {"code": 8501014, "edu_office_code": "Q10", "name": "영흥중학교", "type": 2, "location": "전라남도", "address": "전라남도 목포시 삼각로43번길 9"}}, {"model": "schools.school", "pk": 157, "fields": {"code": 7010204, "edu_office_code": "B10", "name": "숭의여자고등학교", "type": 3, "location": "서울특별시", "address": "서울특별시 동작구 여의대방로36길 79"}}, {"model": "schools.school", "pk": 158, "fields": {"code": 7132148, "edu_office_code": "B10", "name": "숭의여자중학교", "type": 2, "location": "서울특별시", "address": "서울특별시 동작구 여의대방로36길 79"}}, {"model": "schools.school", "pk": 159, "fields": {"code": 7171051, "edu_office_code": "C10", "name": "다대초등학교", "type": 1, "location": "부산광역시", "address": "부산광역시 사하구 다대로 499"}}, {"model": "schools.school", "pk": 160, "fields": {"code": 8921018, "edu_office_code": "R10", "name": "고령초등학교", "type": 1, "location": "경상북도", "address": "경상북도 고령군 왕정길 10 "}}, {"model": "schools.school", "pk": 161, "fields": {"code": 8011204, "edu_office_code": "M10", "name": "청남초등학교", "type": 1, "location": "충청북도", "address": "충청북도 청주시 상당구 단재로 109"}}, {"model": "schools.school", "pk": 162, "fields": {"code": 8061020, "edu_office_code": "M10", "name": "청산초등학교", "type": 1, "location": "충청북도", "address": "충청북도 옥천군 청산면 지전길 36-19"}}, {"model": "schools.school", "pk": 163, "fields": {"code": 8801122, "edu_office_code": "R10", "name": "인동초등학교", "type": 1, "location": "경상북도", "address": "경상북도 구미시 여헌로3길 34"}}, {"model": "schools.school", "pk": 164, "fields": {"code": 8222024, "edu_office_code": "N10", "name": "강경중앙초등학교", "type": 1, "location": "충청남도", "address": "충청남도 논산시 강경읍 옥녀봉로 8"}}, {"model": "schools.school", "pk": 165, "fields": {"code": 8021071, "edu_office_code": "M10", "name": "충주교현초등학교", "type": 1, "location": "충청북도", "address": "충청북도 충주시 교동2길 15"}}, {"model": "schools.school", "pk": 166, "fields": {"code": 7010208, "edu_office_code": "B10", "name": "양정고등학교", "type": 3, "location": "서울특별시", "address": "서울특별시 양천구 안양천로 1039"}}, {"model": "schools.school", "pk": 167, "fields": {"code": 7081522, "edu_office_code": "B10", "name": "양정중학교", "type": 2, "location": "서울특별시", "address": "서울특별시 양천구 안양천로 1039"}}, {"model": "schools.school", "pk": 168, "fields": {"code": 8391019, "edu_office_code": "P10", "name": "고산초등학교", "type": 1, "location": "전라북도", "address": "전라북도 완주군 고산면 고산로 153"}}, {"model": "schools.school", "pk": 169, "fields": {"code": 7011488, "edu_office_code": "B10", "name": "광신방송예술고등학교", "type": 3, "location": "서울특별시", "address": "서울특별시 관악구 광신길 141"}}, {"model": "schools.school", "pk": 170, "fields": {"code": 7031197, "edu_office_code": "B10", "name": "숭문중학교", "type": 2, "location": "서울특별시", "address": "서울특별시 마포구 숭문길 99"}}, {"model": "schools.school", "pk": 171, "fields": {"code": 7681063, "edu_office_code": "J10", "name": "파주초등학교", "type": 1, "location": "경기도", "address": "경기도 파주시 파주읍 우계로53번길 15"}}, {"model": "schools.school", "pk": 172, "fields": {"code": 8051025, "edu_office_code": "M10", "name": "회인초등학교", "type": 1, "location": "충청북도", "address": "충청북도 보은군 회인면 회인로1길 10-8"}}, {"model": "schools.school", "pk": 173, "fields": {"code": 8071028, "edu_office_code": "M10", "name": "황간초등학교", "type": 1, "location": "충청북도", "address": "충청북도 영동군 황간면 남성1길 25"}}, {"model": "schools.school", "pk": 174, "fields": {"code": 7281023, "edu_office_code": "D10", "name": "대구현풍초등학교", "type": 1, "location": "대구광역시", "address": "대구광역시 달성군 현풍읍 비슬로134길 167-6"}}, {"model": "schools.school", "pk": 175, "fields": {"code": 8561021, "edu_office_code": "Q10", "name": "창평초등학교", "type": 1, "location": "전라남도", "address": "전라남도 담양군 창평면 의병로 173"}}, {"model": "schools.school", "pk": 176, "fields": {"code": 7132151, "edu_office_code": "B10", "name": "영등포중학교", "type": 2, "location": "서울특별시", "address": "서울특별시 동작구 등용로8길 5"}}, {"model": "schools.school", "pk": 177, "fields": {"code": 7010244, "edu_office_code": "B10", "name": "진명여자고등학교", "type": 3, "location": "서울특별시", "address": "서울특별시 양천구 목동로 170"}}, {"model": "schools.school", "pk": 178, "fields": {"code": 7010268, "edu_office_code": "B10", "name": "휘문고등학교", "type": 3, "location": "서울특별시", "address": "서울특별시 강남구 역삼로 541"}}, {"model": "schools.school", "pk": 179, "fields": {"code": 7091457, "edu_office_code": "B10", "name": "휘문중학교", "type": 2, "location": "서울특별시", "address": "서울특별시 강남구 역삼로 541"}}, {"model": "schools.school", "pk": 180, "fields": {"code": 8341074, "edu_office_code": "P10", "name": "임피초등학교", "type": 1, "location": "전라북도", "address": "전라북도 군산시 임피면 동헌길 38"}}, {"model": "schools.school", "pk": 181, "fields": {"code": 8571012, "edu_office_code": "Q10", "name": "옥과초등학교", "type": 1, "location": "전라남도", "address": "전라남도 곡성군 옥과면 대학로 213"}}, {"model": "schools.school", "pk": 182, "fields": {"code": 7010238, "edu_office_code": "B10", "name": "중동고등학교", "type": 3, "location": "서울특별시", "address": "서울특별시 강남구 일원로 7"}}, {"model": "schools.school", "pk": 183, "fields": {"code": 7091455, "edu_office_code": "B10", "name": "중동중학교", "type": 2, "location": "서울특별시", "address": "서울특별시 강남구 일원로8길 37"}}, {"model": "schools.school", "pk": 184, "fields": {"code": 7010201, "edu_office_code": "B10", "name": "숙명여자고등학교", "type": 3, "location": "서울특별시", "address": "서울특별시 강남구 남부순환로 2807"}}, {"model": "schools.school", "pk": 185, "fields": {"code": 7091453, "edu_office_code": "B10", "name": "숙명여자중학교", "type": 2, "location": "서울특별시", "address": "서울특별시 강남구 남부순환로 2807"}}, {"model": "schools.school", "pk": 186, "fields": {"code": 8111021, "edu_office_code": "M10", "name": "영춘초등학교", "type": 1, "location": "충청북도", "address": "충청북도 단양군 영춘면 온달평강로 63-6"}}, {"model": "schools.school", "pk": 187, "fields": {"code": 8371081, "edu_office_code": "P10", "name": "남원용성초등학교", "type": 1, "location": "전라북도", "address": "전라북도 남원시 용성로 29"}}, {"model": "schools.school", "pk": 188, "fields": {"code": 8761130, "edu_office_code": "R10", "name": "송라초등학교", "type": 1, "location": "경상북도", "address": "경상북도 포항시 북구 송라면 보경로 57"}}, {"model": "schools.school", "pk": 189, "fields": {"code": 8331075, "edu_office_code": "P10", "name": "전주완산초등학교", "type": 1, "location": "전라북도", "address": "전라북도 전주시 완산구 매곡로 22"}}, {"model": "schools.school", "pk": 190, "fields": {"code": 8531038, "edu_office_code": "Q10", "name": "남평초등학교", "type": 1, "location": "전라남도", "address": "전라남도 나주시 남평읍 지석로 95"}}]